[
  { "navn": "Mylla/Myllsdammen", "fylke": "Akershus", "omrade": "Nordmarka Nord", "lat": 60.252, "lon": 10.605 },
  { "navn": "Svartbekken", "fylke": "Akershus", "omrade": "Nordmarka Nord", "lat": 60.233, "lon": 10.655 },
  { "navn": "Svea", "fylke": "Akershus", "omrade": "Nordmarka Nord", "lat": 60.251, "lon": 10.552 },
  { "navn": "Brovoll", "fylke": "Akershus", "omrade": "Romeriksåsen", "lat": 60.315, "lon": 10.618 },
  { "navn": "Frognerseteren", "fylke": "Oslo", "omrade": "Nordmarka Syd", "lat": 59.978, "lon": 10.677 },
  { "navn": "Sognsvann", "fylke": "Oslo", "omrade": "Nordmarka Syd", "lat": 59.967, "lon": 10.733 },
  { "navn": "Movatn", "fylke": "Oslo", "omrade": "Nordmarka Nord", "lat": 60.038, "lon": 10.821 },
  { "navn": "Skullerudstua", "fylke": "Oslo", "omrade": "Østmarka", "lat": 59.865, "lon": 10.841 },
  { "navn": "Linderudkollen", "fylke": "Oslo", "omrade": "Lillomarka", "lat": 59.962, "lon": 10.838 },
  { "navn": "Solli (Asker)", "fylke": "Akershus", "omrade": "Vestmarka", "lat": 59.854, "lon": 10.374 },
  { "navn": "Lygna", "fylke": "Innlandet", "omrade": "Hadeland", "lat": 60.463, "lon": 10.648 },
  { "navn": "Hemsedal Skisenter", "fylke": "Buskerud", "omrade": "Hallingdal", "lat": 60.863, "lon": 8.513 },
  { "navn": "Geilo (Vestlia)", "fylke": "Buskerud", "omrade": "Hallingdal", "lat": 60.528, "lon": 8.209 },
  { "navn": "Norefjell", "fylke": "Buskerud", "omrade": "Norefjell", "lat": 60.239, "lon": 9.596 },
  { "navn": "Sjusjøen", "fylke": "Innlandet", "omrade": "Gudbrandsdalen", "lat": 61.150, "lon": 10.700 },
  { "navn": "Svinevika", "fylke": "Vestfold", "omrade": "Larvik", "lat": 59.023, "lon": 10.155 },
  { "navn": "Fredrikstad Skiarena", "fylke": "Østfold", "omrade": "Ytre Østfold", "lat": 59.231, "lon": 10.925 },
  { "navn": "Svanstul", "fylke": "Telemark", "omrade": "Grenland", "lat": 59.390, "lon": 9.388 },
  { "navn": "Gausta", "fylke": "Telemark", "omrade": "Tinn", "lat": 59.878, "lon": 8.749 },
  { "navn": "Gautefall", "fylke": "Telemark", "omrade": "Drangedal", "lat": 59.064, "lon": 8.724 },
  { "navn": "Gålå", "fylke": "Innlandet", "omrade": "Gudbrandsdalen", "lat": 61.503, "lon": 9.789 },
  { "navn": "Skeikampen", "fylke": "Innlandet", "omrade": "Gudbrandsdalen", "lat": 61.341, "lon": 10.081 },
  { "navn": "Trysil", "fylke": "Innlandet", "omrade": "Østerdalen", "lat": 61.314, "lon": 12.261 }
]