[
  { "navn": "Mylla/Myllsdammen", "fylke": "Akershus", "omrade": "Nordmarka Nord", "lat": 60.252, "lon": 10.605, "hovedkategori": "snø", "underkategori": "langrenn" },
  { "navn": "Svartbekken", "fylke": "Akershus", "omrade": "Nordmarka Nord", "lat": 60.233, "lon": 10.655, "hovedkategori": "snø", "underkategori": "langrenn" },
  { "navn": "Svea", "fylke": "Akershus", "omrade": "Nordmarka Nord", "lat": 60.251, "lon": 10.552, "hovedkategori": "snø", "underkategori": "langrenn" },
  { "navn": "Brovoll", "fylke": "Akershus", "omrade": "Romeriksåsen", "lat": 60.315, "lon": 10.618, "hovedkategori": "snø", "underkategori": "langrenn" },
  { "navn": "Frognerseteren", "fylke": "Oslo", "omrade": "Nordmarka Syd", "lat": 59.978, "lon": 10.677, "hovedkategori": "snø", "underkategori": "langrenn" },
  { "navn": "Sognsvann", "fylke": "Oslo", "omrade": "Nordmarka Syd", "lat": 59.967, "lon": 10.733, "hovedkategori": "snø", "underkategori": "langrenn" },
  { "navn": "Movatn", "fylke": "Oslo", "omrade": "Nordmarka Nord", "lat": 60.038, "lon": 10.821, "hovedkategori": "snø", "underkategori": "langrenn" },
  { "navn": "Skullerudstua", "fylke": "Oslo", "omrade": "Østmarka", "lat": 59.865, "lon": 10.841, "hovedkategori": "snø", "underkategori": "langrenn" },
  { "navn": "Linderudkollen", "fylke": "Oslo", "omrade": "Lillomarka", "lat": 59.962, "lon": 10.838, "hovedkategori": "snø", "underkategori": "langrenn" },
  { "navn": "Solli (Asker)", "fylke": "Akershus", "omrade": "Vestmarka", "lat": 59.854, "lon": 10.374, "hovedkategori": "snø", "underkategori": "langrenn" },
  { "navn": "Lygna Skisenter", "fylke": "Innlandet", "omrade": "Hadeland", "lat": 60.463, "lon": 10.648, "hovedkategori": "snø", "underkategori": "langrenn" },
  { "navn": "Hemsedal Skisenter", "fylke": "Buskerud", "omrade": "Hallingdal", "lat": 60.863, "lon": 8.513, "hovedkategori": "snø", "underkategori": "alpint" },
  { "navn": "Geilo (Vestlia)", "fylke": "Buskerud", "omrade": "Hallingdal", "lat": 60.528, "lon": 8.209, "hovedkategori": "snø", "underkategori": "alpint" },
  { "navn": "Norefjell", "fylke": "Buskerud", "omrade": "Norefjell", "lat": 60.239, "lon": 9.596, "hovedkategori": "snø", "underkategori": "alpint" },
  { "navn": "Sjusjøen Skisenter", "fylke": "Innlandet", "omrade": "Gudbrandsdalen", "lat": 61.150, "lon": 10.700, "hovedkategori": "snø", "underkategori": "alpint" },
  { "navn": "Svinevika", "fylke": "Vestfold", "omrade": "Larvik", "lat": 59.023, "lon": 10.155, "hovedkategori": "vind", "underkategori": "hav" },
  { "navn": "Fredrikstad Skiarena", "fylke": "Østfold", "omrade": "Ytre Østfold", "lat": 59.231, "lon": 10.925, "hovedkategori": "snø", "underkategori": "langrenn" },
  { "navn": "Svanstul", "fylke": "Telemark", "omrade": "Grenland", "lat": 59.390, "lon": 9.388, "hovedkategori": "snø", "underkategori": "langrenn" },
  { "navn": "Gausta Skisenter", "fylke": "Telemark", "omrade": "Tinn", "lat": 59.878, "lon": 8.749, "hovedkategori": "snø", "underkategori": "alpint" },
  { "navn": "Gautefall", "fylke": "Telemark", "omrade": "Drangedal", "lat": 59.064, "lon": 8.724, "hovedkategori": "snø", "underkategori": "alpint" },
  { "navn": "Gålå Alpin og Aktiv", "fylke": "Innlandet", "omrade": "Gudbrandsdalen", "lat": 61.503, "lon": 9.789, "hovedkategori": "snø", "underkategori": "alpint" },
  { "navn": "Skeikampen", "fylke": "Innlandet", "omrade": "Gudbrandsdalen", "lat": 61.341, "lon": 10.081, "hovedkategori": "snø", "underkategori": "alpint" },
  { "navn": "Trysil", "fylke": "Innlandet", "omrade": "Østerdalen", "lat": 61.314, "lon": 12.261, "hovedkategori": "snø", "underkategori": "alpint" },
  { "navn": "Oslo Skisenter Grefsenkollen", "fylke": "Oslo", "omrade": "Grefsen", "lat": 59.958, "lon": 10.803, "hovedkategori": "snø", "underkategori": "alpint" },
  { "navn": "Skimore Oslo Tryvann/Wyller", "fylke": "Oslo", "omrade": "Tryvann", "lat": 59.988, "lon": 10.669, "hovedkategori": "snø", "underkategori": "alpint" },
  { "navn": "Sloreåsen slalåmbakke", "fylke": "Oslo", "omrade": "Ljan", "lat": 59.845, "lon": 10.795, "hovedkategori": "snø", "underkategori": "alpint" },
  { "navn": "Lindeberg", "fylke": "Oslo", "omrade": "Lindeberg", "lat": 59.932, "lon": 10.875, "hovedkategori": "snø", "underkategori": "alpint" },
  { "navn": "Høybråten/Stovner", "fylke": "Oslo", "omrade": "Stovner", "lat": 59.965, "lon": 10.925, "hovedkategori": "snø", "underkategori": "alpint" },
  { "navn": "Kolsås Skisenter", "fylke": "Akershus", "omrade": "Bærum", "lat": 59.927, "lon": 10.518, "hovedkategori": "snø", "underkategori": "alpint" },
  { "navn": "Kirkerudbakken", "fylke": "Akershus", "omrade": "Bærum", "lat": 59.904, "lon": 10.457, "hovedkategori": "snø", "underkategori": "alpint" },
  { "navn": "Lommedalen Skisenter", "fylke": "Akershus", "omrade": "Bærum", "lat": 59.961, "lon": 10.485, "hovedkategori": "snø", "underkategori": "alpint" },
  { "navn": "Vardåsen Skisenter", "fylke": "Akershus", "omrade": "Asker", "lat": 59.825, "lon": 10.405, "hovedkategori": "snø", "underkategori": "alpint" },
  { "navn": "Varingskollen Alpinsenter", "fylke": "Akershus", "omrade": "Nittedal", "lat": 60.106, "lon": 10.846, "hovedkategori": "snø", "underkategori": "alpint" },
  { "navn": "Ingierkollen Slalåmsenter", "fylke": "Akershus", "omrade": "Kolbotn", "lat": 59.814, "lon": 10.778, "hovedkategori": "snø", "underkategori": "alpint" },
  { "navn": "Brattbakken Nesodden", "fylke": "Akershus", "omrade": "Nesodden", "lat": 59.822, "lon": 10.635, "hovedkategori": "snø", "underkategori": "alpint" },
  { "navn": "SNØ (Lørenskog)", "fylke": "Akershus", "omrade": "Lørenskog", "lat": 59.938, "lon": 10.957, "hovedkategori": "snø", "underkategori": "alpint" },
  { "navn": "Kongsberg Skisenter", "fylke": "Buskerud", "omrade": "Kongsberg", "lat": 59.658, "lon": 9.613, "hovedkategori": "snø", "underkategori": "alpint" },
  { "navn": "Skimore Drammen", "fylke": "Buskerud", "omrade": "Drammen", "lat": 59.755, "lon": 10.155, "hovedkategori": "snø", "underkategori": "alpint" },
  { "navn": "Ål Skisenter", "fylke": "Buskerud", "omrade": "Hallingdal", "lat": 60.635, "lon": 8.525, "hovedkategori": "snø", "underkategori": "alpint" },
  { "navn": "Golsfjellet Alpinsenter", "fylke": "Buskerud", "omrade": "Gol", "lat": 60.785, "lon": 8.955, "hovedkategori": "snø", "underkategori": "alpint" },
  { "navn": "Gaustablikk", "fylke": "Telemark", "omrade": "Tinn", "lat": 59.885, "lon": 8.765, "hovedkategori": "snø", "underkategori": "alpint" },
  { "navn": "Vrådal Panorama", "fylke": "Telemark", "omrade": "Kviteseid", "lat": 59.325, "lon": 8.485, "hovedkategori": "snø", "underkategori": "alpint" },
  { "navn": "Middagsåsen Skisenter", "fylke": "Østfold", "omrade": "Våler", "lat": 59.485, "lon": 10.885, "hovedkategori": "snø", "underkategori": "alpint" },
  { "navn": "Hafjell", "fylke": "Innlandet", "omrade": "Lillehammer", "lat": 61.234, "lon": 10.451, "hovedkategori": "snø", "underkategori": "alpint" },
  { "navn": "Kvitfjell", "fylke": "Innlandet", "omrade": "Ringebu", "lat": 61.464, "lon": 10.126, "hovedkategori": "snø", "underkategori": "alpint" },
  { "navn": "Hovden Alpinsenter", "fylke": "Agder", "omrade": "Setesdal", "lat": 59.558, "lon": 7.356, "hovedkategori": "snø", "underkategori": "alpint" },
  { "id": "Ingierstrand", "navn": "Ingierstrand", "hovedkategori": "vind", "underkategori": "hav", "fylke": "Oslo", "omrade": "Bunnefjorden", "lat": 59.817, "lon": 10.752 },
  { "id": "bygdoy", "navn": "Bygdøy Sjøbad", "hovedkategori": "vind", "underkategori": "hav", "fylke": "Oslo", "omrade": "Oslofjorden", "lat": 59.905, "lon": 10.665 },
  { "id": "ellefstranda", "navn": "Ellefstranda", "hovedkategori": "vind", "underkategori": "hav", "fylke": "Akershus", "omrade": "Nærsnes", "lat": 59.757, "lon": 10.510 },
  { "id": "kjerringvik", "navn": "Kjerringvik", "hovedkategori": "vind", "underkategori": "hav", "fylke": "Vestfold", "omrade": "Larvik", "lat": 59.043, "lon": 10.226 },
  { "id": "tronvik", "navn": "Tronvikstranda", "hovedkategori": "vind", "underkategori": "hav", "fylke": "Østfold", "omrade": "Moss", "lat": 59.423, "lon": 10.603 },
  { "id": "larkollen", "navn": "Larkollen", "hovedkategori": "vind", "underkategori": "hav", "fylke": "Østfold", "omrade": "Rygge", "lat": 59.333, "lon": 10.664 },
  { "id": "svenner", "navn": "Svenner Fyr", "hovedkategori": "vind", "underkategori": "hav", "fylke": "Vestfold", "omrade": "Stavern", "lat": 58.968, "lon": 10.148 },
  { "id": "faerder", "navn": "Færder Fyr", "hovedkategori": "vind", "underkategori": "hav", "fylke": "Vestfold", "omrade": "Ytre Oslofjord", "lat": 59.027, "lon": 10.524 },
  { "id": "molen", "navn": "Mølen", "hovedkategori": "vind", "underkategori": "hav", "fylke": "Vestfold", "omrade": "Larvik", "lat": 58.972, "lon": 9.804 },
  { "id": "lindesnes", "navn": "Lindesnes Fyr", "hovedkategori": "vind", "underkategori": "hav", "fylke": "Agder", "omrade": "Sørlandet", "lat": 57.982, "lon": 7.047 },
  { "id": "andenes", "navn": "Andenes", "hovedkategori": "vind", "underkategori": "hav", "fylke": "Nordland", "omrade": "Vesterålen", "lat": 69.324, "lon": 16.118 },
  { "id": "nordkapp", "navn": "Nordkapp", "hovedkategori": "vind", "underkategori": "hav", "fylke": "Finnmark", "omrade": "Magerøya", "lat": 71.169, "lon": 25.783 },
  { "id": "mjosa_hamar", "navn": "Mjøsa (Hamar)", "hovedkategori": "vind", "underkategori": "innsjø", "fylke": "Innlandet", "omrade": "Hamar", "lat": 60.791, "lon": 11.077 },
  { "id": "skar_oyungen", "navn": "Skar: Øyungen", "hovedkategori": "tur", "underkategori": "stier", "fylke": "Oslo", "omrade": "Maridalen", "lat": 60.005, "lon": 10.778 },
  { "id": "skar_mellomkollen", "navn": "Skar: Mellomkollen", "hovedkategori": "tur", "underkategori": "topper", "fylke": "Oslo", "omrade": "Maridalsalpene", "lat": 60.015, "lon": 10.770 },
  { "id": "aker_brygge", "navn": "Aker Brygge", "hovedkategori": "tur", "underkategori": "byen", "fylke": "Oslo", "omrade": "Sentrum", "lat": 59.911, "lon": 10.728 },
  { "id": "maridalen_runde", "navn": "Maridalen Rundt", "hovedkategori": "sykkel", "underkategori": "landevei", "fylke": "Oslo", "omrade": "Maridalen", "lat": 59.992, "lon": 10.768 },
  { "id": "tryvann_sti", "navn": "Tryvann: Pioneerstien", "hovedkategori": "sykkel", "underkategori": "terreng", "fylke": "Oslo", "omrade": "Nordmarka", "lat": 59.988, "lon": 10.669 },{ "id": "maridalsvannet", "navn": "Maridalsvannet", "hovedkategori": "vind", "underkategori": "innsjø", "fylke": "Oslo", "omrade": "Maridalen", "lat": 59.988, "lon": 10.776 },
  { "id": "oyeren", "navn": "Øyeren", "hovedkategori": "vind", "underkategori": "innsjø", "fylke": "Akershus", "omrade": "Lillestrøm", "lat": 59.885, "lon": 11.121 },
  { "id": "hurdalssjoen", "navn": "Hurdalssjøen", "hovedkategori": "vind", "underkategori": "innsjø", "fylke": "Akershus", "omrade": "Hurdal", "lat": 60.381, "lon": 11.066 },
  { "id": "storsjoen", "navn": "Storsjøen", "hovedkategori": "vind", "underkategori": "innsjø", "fylke": "Innlandet", "omrade": "Odalen", "lat": 60.347, "lon": 11.666 },
  { "id": "tyrifjorden", "navn": "Tyrifjorden", "hovedkategori": "vind", "underkategori": "innsjø", "fylke": "Buskerud", "omrade": "Hole", "lat": 60.033, "lon": 10.200 },
  { "id": "eikeren", "navn": "Eikeren", "hovedkategori": "vind", "underkategori": "innsjø", "fylke": "Buskerud", "omrade": "Øvre Eiker", "lat": 59.610, "lon": 10.050 },
  { "id": "tinnsja", "navn": "Tinnsjå", "hovedkategori": "vind", "underkategori": "innsjø", "fylke": "Telemark", "omrade": "Tinn", "lat": 59.923, "lon": 8.783 },
  { "id": "isdammen", "navn": "Isdammen Årvoll", "hovedkategori": "sykkel", "underkategori": "terreng", "fylke": "Oslo", "omrade": "Bjerke", "lat": 59.952, "lon": 10.825 },
  { "id": "alunsjoen", "navn": "Alunsjøen Grorud", "hovedkategori": "sykkel", "underkategori": "terreng", "fylke": "Oslo", "omrade": "Grorud", "lat": 59.965, "lon": 10.865 },
  { "id": "skullerudstua", "navn": "Skullerudstua", "hovedkategori": "sykkel", "underkategori": "terreng", "fylke": "Oslo", "omrade": "Østmarka", "lat": 59.865, "lon": 10.844 },
  { "id": "oset_kjellsas", "navn": "Oset Kjellsås", "hovedkategori": "sykkel", "underkategori": "terreng", "fylke": "Oslo", "omrade": "Nordmarka", "lat": 59.972, "lon": 10.790 },
  { "id": "kleivstua", "navn": "Kleivstua Hotell", "hovedkategori": "sykkel", "underkategori": "terreng", "fylke": "Buskerud", "omrade": "Krokskogen", "lat": 60.038, "lon": 10.316 },
  { "id": "bokeskogen", "navn": "Bøkeskogen Larvik", "hovedkategori": "sykkel", "underkategori": "terreng", "fylke": "Vestfold", "omrade": "Larvik", "lat": 59.057, "lon": 10.024 },
  { "id": "svinevika_terreng", "navn": "Svinevika", "hovedkategori": "sykkel", "underkategori": "terreng", "fylke": "Vestfold", "omrade": "Larvik", "lat": 59.014, "lon": 10.141 },
  { "id": "mangen_kapell", "navn": "Mangen Kapell", "hovedkategori": "sykkel", "underkategori": "terreng", "fylke": "Akershus", "omrade": "Aurskog-Høland", "lat": 60.007, "lon": 11.666 },
  { "id": "hogsetgrenda", "navn": "Hogsetgrenda", "hovedkategori": "sykkel", "underkategori": "terreng", "fylke": "Akershus", "omrade": "Fet", "lat": 59.932, "lon": 11.218 },
  { "id": "taerudhallen", "navn": "Tærudhallen", "hovedkategori": "sykkel", "underkategori": "terreng", "fylke": "Akershus", "omrade": "Skedsmokorset", "lat": 60.005, "lon": 11.025 },
  { "id": "nittedal_kirke_terreng", "navn": "Nittedal Kirke", "hovedkategori": "sykkel", "underkategori": "terreng", "fylke": "Akershus", "omrade": "Nittedal", "lat": 60.054, "lon": 10.865 },
  { "id": "arvoll_landevei", "navn": "Årvoll", "hovedkategori": "sykkel", "underkategori": "landevei", "fylke": "Oslo", "omrade": "Bjerke", "lat": 59.949, "lon": 10.817 },
  { "id": "maridalen_landevei", "navn": "Maridalen", "hovedkategori": "sykkel", "underkategori": "landevei", "fylke": "Oslo", "omrade": "Nordmarka", "lat": 59.992, "lon": 10.768 },
  { "id": "nittedal_landevei", "navn": "Nittedal", "hovedkategori": "sykkel", "underkategori": "landevei", "fylke": "Akershus", "omrade": "Hadelandsveien", "lat": 60.025, "lon": 10.890 },
  { "id": "oslo_sentrum", "navn": "Oslo", "hovedkategori": "sykkel", "underkategori": "landevei", "fylke": "Oslo", "omrade": "Byen", "lat": 59.913, "lon": 10.752 },
  { "id": "larvik_landevei", "navn": "Larvik", "hovedkategori": "sykkel", "underkategori": "landevei", "fylke": "Vestfold", "omrade": "Brunlanes", "lat": 59.053, "lon": 10.028 },
  { "id": "sandefjord_landevei", "navn": "Sandefjord", "hovedkategori": "sykkel", "underkategori": "landevei", "fylke": "Vestfold", "omrade": "Vestfold", "lat": 59.131, "lon": 10.222 },
  { "id": "blaker_landevei", "navn": "Blaker", "hovedkategori": "sykkel", "underkategori": "landevei", "fylke": "Akershus", "omrade": "Indre Akershus", "lat": 59.991, "lon": 11.300 },
  { "id": "skedsmo_landevei", "navn": "Skedsmo", "hovedkategori": "sykkel", "underkategori": "landevei", "fylke": "Akershus", "omrade": "Skedsmokorset", "lat": 60.005, "lon": 11.025 },
  { "id": "harstad_landevei", "navn": "Harstad", "hovedkategori": "sykkel", "underkategori": "landevei", "fylke": "Troms", "omrade": "Nord-Norge", "lat": 68.798, "lon": 16.541 },
  { "id": "kvafjord_landevei", "navn": "Kvæfjord", "hovedkategori": "sykkel", "underkategori": "landevei", "fylke": "Troms", "omrade": "Kvæfjord", "lat": 68.772, "lon": 16.175 },
  { "id": "andenes_landevei", "navn": "Andenes", "hovedkategori": "sykkel", "underkategori": "landevei", "fylke": "Nordland", "omrade": "Vesterålen", "lat": 69.324, "lon": 16.118 },
  { "id": "alta_landevei", "navn": "Alta", "hovedkategori": "sykkel", "underkategori": "landevei", "fylke": "Finnmark", "omrade": "Altafjorden", "lat": 69.968, "lon": 23.271 },
  { "id": "bergen_landevei", "navn": "Bergen", "hovedkategori": "sykkel", "underkategori": "landevei", "fylke": "Vestland", "omrade": "Vestlandet", "lat": 60.391, "lon": 5.322 },
  { "id": "stavanger_landevei", "navn": "Stavanger", "hovedkategori": "sykkel", "underkategori": "landevei", "fylke": "Rogaland", "omrade": "Sør-Vest", "lat": 58.970, "lon": 5.733 },
  { "id": "halden_landevei", "navn": "Halden", "hovedkategori": "sykkel", "underkategori": "landevei", "fylke": "Østfold", "omrade": "Grensen", "lat": 59.124, "lon": 11.387 },{ "id": "malmoya", "navn": "Malmøya", "hovedkategori": "tur", "underkategori": "kyst", "fylke": "Oslo", "omrade": "Oslofjorden", "lat": 59.866, "lon": 10.758 },
  { "id": "fornebu", "navn": "Fornebu", "hovedkategori": "tur", "underkategori": "kyst", "fylke": "Akershus", "omrade": "Bærum", "lat": 59.894, "lon": 10.627 },
  { "id": "breivoll", "navn": "Breivoll Friområde", "hovedkategori": "tur", "underkategori": "kyst", "fylke": "Akershus", "omrade": "Ås", "lat": 59.747, "lon": 10.741 },
  { "id": "nesoddtangen", "navn": "Nesoddtangen", "hovedkategori": "tur", "underkategori": "kyst", "fylke": "Akershus", "omrade": "Nesodden", "lat": 59.868, "lon": 10.702 },
  { "id": "oscarsborg", "navn": "Oscarsborg", "hovedkategori": "tur", "underkategori": "kyst", "fylke": "Akershus", "omrade": "Drøbak", "lat": 59.668, "lon": 10.606 },
  { "id": "son", "navn": "Son", "hovedkategori": "tur", "underkategori": "kyst", "fylke": "Akershus", "omrade": "Vestby", "lat": 59.523, "lon": 10.685 },
  { "id": "tronvikbukta", "navn": "Tronvikbukta", "hovedkategori": "tur", "underkategori": "kyst", "fylke": "Østfold", "omrade": "Moss", "lat": 59.425, "lon": 10.598 },
  { "id": "hvaler", "navn": "Hvaler", "hovedkategori": "tur", "underkategori": "kyst", "fylke": "Østfold", "omrade": "Skjærhalden", "lat": 59.027, "lon": 11.039 },
  { "id": "svelvik", "navn": "Svelvik", "hovedkategori": "tur", "underkategori": "kyst", "fylke": "Buskerud", "omrade": "Drammensfjorden", "lat": 59.613, "lon": 10.408 },
  { "id": "kj_vern", "navn": "Karl Johans Vern", "hovedkategori": "tur", "underkategori": "kyst", "fylke": "Vestfold", "omrade": "Horten", "lat": 59.418, "lon": 10.490 },
  { "id": "asgardstrand", "navn": "Åsgårdstrand", "hovedkategori": "tur", "underkategori": "kyst", "fylke": "Vestfold", "omrade": "Horten", "lat": 59.349, "lon": 10.468 },
  { "id": "karlsvika", "navn": "Karlsvika", "hovedkategori": "tur", "underkategori": "kyst", "fylke": "Vestfold", "omrade": "Tønsberg", "lat": 59.288, "lon": 10.488 },
  { "id": "verdens_ende", "navn": "Verdens Ende", "hovedkategori": "tur", "underkategori": "kyst", "fylke": "Vestfold", "omrade": "Tjøme", "lat": 59.057, "lon": 10.407 },
  { "id": "tonsberg_tonne", "navn": "Tønsberg Tønne", "hovedkategori": "tur", "underkategori": "kyst", "fylke": "Vestfold", "omrade": "Sandefjord", "lat": 59.060, "lon": 10.312 },
  { "id": "folehavna", "navn": "Folehavna Fort", "hovedkategori": "tur", "underkategori": "kyst", "fylke": "Vestfold", "omrade": "Sandefjord", "lat": 59.070, "lon": 10.252 },
  { "id": "ula", "navn": "Ula", "hovedkategori": "tur", "underkategori": "kyst", "fylke": "Vestfold", "omrade": "Larvik", "lat": 59.021, "lon": 10.187 },
  { "id": "eftang", "navn": "Eftang", "hovedkategori": "tur", "underkategori": "kyst", "fylke": "Vestfold", "omrade": "Larvik", "lat": 59.006, "lon": 10.126 },
  { "id": "kaupang", "navn": "Kaupang", "hovedkategori": "tur", "underkategori": "kyst", "fylke": "Vestfold", "omrade": "Larvik", "lat": 59.034, "lon": 10.106 },
  { "id": "minnehallen", "navn": "Minnehallen Stavern", "hovedkategori": "tur", "underkategori": "kyst", "fylke": "Vestfold", "omrade": "Stavern", "lat": 58.992, "lon": 10.046 },
  { "id": "nevlunghavn", "navn": "Nevlunghavn Brygge", "hovedkategori": "tur", "underkategori": "kyst", "fylke": "Vestfold", "omrade": "Larvik", "lat": 58.968, "lon": 9.866 },
  { "id": "selvigbukta", "navn": "Selvig Bukta", "hovedkategori": "tur", "underkategori": "kyst", "fylke": "Telemark", "omrade": "Bamble", "lat": 59.015, "lon": 9.728 },
  { "id": "jomfruland", "navn": "Jomfruland", "hovedkategori": "tur", "underkategori": "kyst", "fylke": "Telemark", "omrade": "Kragerø", "lat": 58.868, "lon": 9.593 },
  { "id": "normannvik", "navn": "Normannvik Brygge", "hovedkategori": "tur", "underkategori": "kyst", "fylke": "Agder", "omrade": "Risør", "lat": 58.721, "lon": 9.243 },
  { "id": "hovedodden", "navn": "Hovedodden", "hovedkategori": "tur", "underkategori": "kyst", "fylke": "Agder", "omrade": "Arendal", "lat": 58.450, "lon": 8.870 },
  { "id": "kalvehagenesset", "navn": "Kalvehagenesset", "hovedkategori": "tur", "underkategori": "kyst", "fylke": "Agder", "omrade": "Lillesand", "lat": 58.232, "lon": 8.328 },
  { "id": "odderoya", "navn": "Odderøya", "hovedkategori": "tur", "underkategori": "kyst", "fylke": "Agder", "omrade": "Kristiansand", "lat": 58.134, "lon": 8.005 },
  { "id": "lista", "navn": "Lista", "hovedkategori": "tur", "underkategori": "kyst", "fylke": "Agder", "omrade": "Farsund", "lat": 58.110, "lon": 6.615 },
  { "id": "tungenes", "navn": "Tungenes Fyr", "hovedkategori": "tur", "underkategori": "kyst", "fylke": "Rogaland", "omrade": "Randaberg", "lat": 59.035, "lon": 5.584 },
  { "id": "skudeneshavn", "navn": "Skudeneshavn", "hovedkategori": "tur", "underkategori": "kyst", "fylke": "Rogaland", "omrade": "Karmøy", "lat": 59.146, "lon": 5.257 },
  { "id": "stord_kyst", "navn": "Stord", "hovedkategori": "tur", "underkategori": "kyst", "fylke": "Vestland", "omrade": "Sunnhordland", "lat": 59.782, "lon": 5.502 },
  
  { "id": "grefsenkleiva", "navn": "Grefsenkleiva", "hovedkategori": "tur", "underkategori": "skog", "fylke": "Oslo", "omrade": "Grefsen", "lat": 59.957, "lon": 10.796 },
  { "id": "grefsenkollen", "navn": "Grefsenkollen", "hovedkategori": "tur", "underkategori": "skog", "fylke": "Oslo", "omrade": "Nordmarka", "lat": 59.958, "lon": 10.803 },
  { "id": "linderudkollen", "navn": "Linderudkollen", "hovedkategori": "tur", "underkategori": "skog", "fylke": "Oslo", "omrade": "Lillomarka", "lat": 59.969, "lon": 10.825 },
  { "id": "sognsvann", "navn": "Sognsvann", "hovedkategori": "tur", "underkategori": "skog", "fylke": "Oslo", "omrade": "Nordmarka", "lat": 59.967, "lon": 10.733 },
  { "id": "hammeren", "navn": "Hammeren", "hovedkategori": "tur", "underkategori": "skog", "fylke": "Oslo", "omrade": "Maridalen", "lat": 59.988, "lon": 10.758 },
  { "id": "sagerud", "navn": "Sagerud", "hovedkategori": "tur", "underkategori": "skog", "fylke": "Akershus", "omrade": "Nittedal", "lat": 60.038, "lon": 10.895 },
  { "id": "stryken", "navn": "Stryken", "hovedkategori": "tur", "underkategori": "skog", "fylke": "Akershus", "omrade": "Nordmarka", "lat": 60.165, "lon": 10.686 },
  { "id": "mylladammen", "navn": "Mylladammen", "hovedkategori": "tur", "underkategori": "skog", "fylke": "Akershus", "omrade": "Hadeland", "lat": 60.235, "lon": 10.590 },
  { "id": "lygna", "navn": "Lygna", "hovedkategori": "tur", "underkategori": "skog", "fylke": "Innlandet", "omrade": "Hadeland", "lat": 60.456, "lon": 10.639 },
  { "id": "sorkedalen", "navn": "Sørkedalen", "hovedkategori": "tur", "underkategori": "skog", "fylke": "Oslo", "omrade": "Nordmarka", "lat": 60.015, "lon": 10.617 },

  { "id": "tverrsjostallen", "navn": "Tverrsjøstallen", "hovedkategori": "tur", "underkategori": "stier", "fylke": "Akershus", "omrade": "Nordmarka Nord", "lat": 60.231, "lon": 10.518 },
  { "id": "semsvannet", "navn": "Semsvannet", "hovedkategori": "tur", "underkategori": "stier", "fylke": "Akershus", "omrade": "Asker", "lat": 59.851, "lon": 10.388 },
  { "id": "gaiastova", "navn": "Gaiastova", "hovedkategori": "tur", "underkategori": "stier", "fylke": "Innlandet", "omrade": "Hafjell", "lat": 61.233, "lon": 10.533 },
  { "id": "pellestova", "navn": "Pellestova", "hovedkategori": "tur", "underkategori": "stier", "fylke": "Innlandet", "omrade": "Øyerfjellet", "lat": 61.239, "lon": 10.517 },
  { "id": "vermundsjoen", "navn": "Vermundsjøen", "hovedkategori": "tur", "underkategori": "stier", "fylke": "Innlandet", "omrade": "Åsnes", "lat": 60.710, "lon": 12.380 },
  { "id": "skirvedalen", "navn": "Skirvedalen", "hovedkategori": "tur", "underkategori": "stier", "fylke": "Telemark", "omrade": "Tinn", "lat": 59.967, "lon": 8.917 },

  { "id": "galdhopiggen", "navn": "Galdhøpiggen", "hovedkategori": "tur", "underkategori": "topper", "fylke": "Innlandet", "omrade": "Jotunheimen", "lat": 61.636, "lon": 8.312 },
  { "id": "glittertind", "navn": "Glittertinden", "hovedkategori": "tur", "underkategori": "topper", "fylke": "Innlandet", "omrade": "Jotunheimen", "lat": 61.652, "lon": 8.555 },
  { "id": "storen", "navn": "Store Skagastølstind", "hovedkategori": "tur", "underkategori": "topper", "fylke": "Vestland", "omrade": "Jotunheimen", "lat": 61.461, "lon": 7.871 },
  { "id": "gaustatoppen", "navn": "Gaustatoppen", "hovedkategori": "tur", "underkategori": "topper", "fylke": "Telemark", "omrade": "Rjukan", "lat": 59.854, "lon": 8.648 },
  { "id": "besseggen", "navn": "Besseggen", "hovedkategori": "tur", "underkategori": "topper", "fylke": "Innlandet", "omrade": "Jotunheimen", "lat": 61.503, "lon": 8.847 },
  { "id": "slogen", "navn": "Slogen", "hovedkategori": "tur", "underkategori": "topper", "fylke": "Møre og Romsdal", "omrade": "Sunnmørsalpene", "lat": 62.207, "lon": 6.671 },
  { "id": "trolltunga", "navn": "Trolltunga", "hovedkategori": "tur", "underkategori": "topper", "fylke": "Vestland", "omrade": "Hardanger", "lat": 60.133, "lon": 6.754 },
  { "id": "preikestolen", "navn": "Preikestolen", "hovedkategori": "tur", "underkategori": "topper", "fylke": "Rogaland", "omrade": "Lysefjorden", "lat": 58.986, "lon": 6.188 },
  { "id": "kjerag", "navn": "Kjerag", "hovedkategori": "tur", "underkategori": "topper", "fylke": "Rogaland", "omrade": "Lysefjorden", "lat": 59.034, "lon": 6.654 },
  { "id": "snohetta", "navn": "Snøhetta", "hovedkategori": "tur", "underkategori": "topper", "fylke": "Innlandet", "omrade": "Dovrefjell", "lat": 62.318, "lon": 9.268 },
  { "id": "stetind", "navn": "Stetind", "hovedkategori": "tur", "underkategori": "topper", "fylke": "Nordland", "omrade": "Narvik", "lat": 68.164, "lon": 16.593 },
  { "id": "syv_sostre", "navn": "De syv søstre", "hovedkategori": "tur", "underkategori": "topper", "fylke": "Nordland", "omrade": "Helgeland", "lat": 65.934, "lon": 12.627 },
  { "id": "romsdalseggen", "navn": "Romsdalseggen", "hovedkategori": "tur", "underkategori": "topper", "fylke": "Møre og Romsdal", "omrade": "Rauma", "lat": 62.583, "lon": 7.712 },
  { "id": "hornelen", "navn": "Hornelen", "hovedkategori": "tur", "underkategori": "topper", "fylke": "Vestland", "omrade": "Bremanger", "lat": 61.860, "lon": 5.245 },
  { "id": "jiehkkevarri", "navn": "Jiehkkevárri", "hovedkategori": "tur", "underkategori": "topper", "fylke": "Troms", "omrade": "Lyngsalpene", "lat": 69.467, "lon": 19.790 },
  { "id": "reinebringen", "navn": "Reinebringen", "hovedkategori": "tur", "underkategori": "topper", "fylke": "Nordland", "omrade": "Lofoten", "lat": 67.926, "lon": 13.076 },
  { "id": "segla", "navn": "Segla", "hovedkategori": "tur", "underkategori": "topper", "fylke": "Troms", "omrade": "Senja", "lat": 69.510, "lon": 17.596 },
  { "id": "vettakollen", "navn": "Vettakollen", "hovedkategori": "tur", "underkategori": "topper", "fylke": "Oslo", "omrade": "Nordmarka", "lat": 59.961, "lon": 10.695 },
  { "id": "hvittensand", "navn": "Hvittensand", "hovedkategori": "vind", "underkategori": "hav", "fylke": "Vestfold", "omrade": "Larvik", "lat": 59.043, "lon": 10.051 },{ "id": "svarttjernshogda", "navn": "Svarttjernshøgda (717 moh)", "hovedkategori": "tur", "underkategori": "topper", "fylke": "Akershus", "omrade": "Jevnaker", "lat": 60.269, "lon": 10.490 },
  { "id": "helgehaugen", "navn": "Helgehaugen (706 moh)", "hovedkategori": "tur", "underkategori": "topper", "fylke": "Akershus", "omrade": "Jevnaker", "lat": 60.245, "lon": 10.550 },
  { "id": "oppkuven", "navn": "Oppkuven (704 moh)", "hovedkategori": "tur", "underkategori": "topper", "fylke": "Akershus", "omrade": "Krokskogen", "lat": 60.076, "lon": 10.522 },
  { "id": "bislingen", "navn": "Bislingen (680 moh)", "hovedkategori": "tur", "underkategori": "topper", "fylke": "Akershus", "omrade": "Lunner", "lat": 60.231, "lon": 10.603 },
  { "id": "assjobrenna", "navn": "Åssjøbrenna (678 moh)", "hovedkategori": "tur", "underkategori": "topper", "fylke": "Akershus", "omrade": "Jevnaker", "lat": 60.278, "lon": 10.575 },
  { "id": "kjerkeberget", "navn": "Kjerkeberget (629 moh)", "hovedkategori": "tur", "underkategori": "topper", "fylke": "Oslo", "omrade": "Nordmarka", "lat": 60.134, "lon": 10.641 },
  { "id": "porthogda", "navn": "Porthøgda (620 moh)", "hovedkategori": "tur", "underkategori": "topper", "fylke": "Oslo", "omrade": "Nordmarka", "lat": 60.142, "lon": 10.665 },
  { "id": "kikuttoppen", "navn": "Kikuttoppen (611 moh)", "hovedkategori": "tur", "underkategori": "topper", "fylke": "Oslo", "omrade": "Nordmarka", "lat": 60.033, "lon": 10.655 },
  { "id": "sandungskollen", "navn": "Sandungskollen (610 moh)", "hovedkategori": "tur", "underkategori": "topper", "fylke": "Oslo", "omrade": "Nordmarka", "lat": 60.113, "lon": 10.684 },
  { "id": "tryvannshogda", "navn": "Tryvannshøgda (530 moh)", "hovedkategori": "tur", "underkategori": "topper", "fylke": "Oslo", "omrade": "Holmenkollen", "lat": 59.988, "lon": 10.668 },
  { "id": "mellomkollen", "navn": "Mellomkollen (537 moh)", "hovedkategori": "tur", "underkategori": "topper", "fylke": "Oslo", "omrade": "Maridalen", "lat": 60.024, "lon": 10.771 },
  { "id": "gaupekollen", "navn": "Gaupekollen (525 moh)", "hovedkategori": "tur", "underkategori": "topper", "fylke": "Oslo", "omrade": "Maridalen", "lat": 60.025, "lon": 10.785 },
  { "id": "midtkollen", "navn": "Midtkollen (519 moh)", "hovedkategori": "tur", "underkategori": "topper", "fylke": "Oslo", "omrade": "Maridalen", "lat": 60.015, "lon": 10.795 },
  { "id": "vittenbergkollen", "navn": "Vittenbergkollen (519 moh)", "hovedkategori": "tur", "underkategori": "topper", "fylke": "Oslo", "omrade": "Lillomarka", "lat": 59.975, "lon": 10.875 },
  { "id": "hansakollen", "navn": "Hansakollen (493 moh)", "hovedkategori": "tur", "underkategori": "topper", "fylke": "Oslo", "omrade": "Maridalen", "lat": 60.007, "lon": 10.778 },
  { "id": "oyungskollen", "navn": "Øyungskollen (430 moh)", "hovedkategori": "tur", "underkategori": "topper", "fylke": "Oslo", "omrade": "Maridalen", "lat": 60.002, "lon": 10.762 },
  { "id": "furumokollen", "navn": "Furumokollen (395 moh)", "hovedkategori": "tur", "underkategori": "topper", "fylke": "Oslo", "omrade": "Maridalen", "lat": 59.992, "lon": 10.745 },
  { "id": "grefsenkollen_tur", "navn": "Grefsenkollen (379 moh)", "hovedkategori": "tur", "underkategori": "topper", "fylke": "Oslo", "omrade": "Grefsen", "lat": 59.958, "lon": 10.803 },
  { "id": "kolsastoppen", "navn": "Søndre Kolsåstoppen (380 moh)", "hovedkategori": "tur", "underkategori": "topper", "fylke": "Akershus", "omrade": "Bærum", "lat": 59.914, "lon": 10.511 },
  { "id": "skaugumsasen", "navn": "Skaugumsåsen (340 moh)", "hovedkategori": "tur", "underkategori": "topper", "fylke": "Akershus", "omrade": "Asker", "lat": 59.854, "lon": 10.428 },
  { "id": "tonekollen", "navn": "Tonekollen (400 moh)", "hovedkategori": "tur", "underkategori": "topper", "fylke": "Akershus", "omrade": "Østmarka", "lat": 59.814, "lon": 11.037 },
  { "id": "roverkollen", "navn": "Røverkollen (350 moh)", "hovedkategori": "tur", "underkategori": "topper", "fylke": "Oslo", "omrade": "Romsås", "lat": 59.971, "lon": 10.898 },
  { "id": "barlindasen", "navn": "Barlindåsen (407 moh)", "hovedkategori": "tur", "underkategori": "topper", "fylke": "Oslo", "omrade": "Maridalen", "lat": 60.012, "lon": 10.812 },
  { "id": "arvollasen", "navn": "Årvollåsen (362 moh)", "hovedkategori": "tur", "underkategori": "topper", "fylke": "Oslo", "omrade": "Årvoll", "lat": 59.953, "lon": 10.831 }]