[
  { "navn": "Mylla/Myllsdammen", "fylke": "Akershus", "omrade": "Nordmarka Nord", "lat": 60.252, "lon": 10.605, "hovedkategori": "snø", "underkategori": "langrenn" },
  { "navn": "Svartbekken", "fylke": "Akershus", "omrade": "Nordmarka Nord", "lat": 60.233, "lon": 10.655, "hovedkategori": "snø", "underkategori": "langrenn" },
  { "navn": "Svea", "fylke": "Akershus", "omrade": "Nordmarka Nord", "lat": 60.251, "lon": 10.552, "hovedkategori": "snø", "underkategori": "langrenn" },
  { "navn": "Brovoll", "fylke": "Akershus", "omrade": "Romeriksåsen", "lat": 60.315, "lon": 10.618, "hovedkategori": "snø", "underkategori": "langrenn" },
  { "navn": "Frognerseteren", "fylke": "Oslo", "omrade": "Nordmarka Syd", "lat": 59.978, "lon": 10.677, "hovedkategori": "snø", "underkategori": "langrenn" },
  { "navn": "Sognsvann", "fylke": "Oslo", "omrade": "Nordmarka Syd", "lat": 59.967, "lon": 10.733, "hovedkategori": "snø", "underkategori": "langrenn" },
  { "navn": "Movatn", "fylke": "Oslo", "omrade": "Nordmarka Nord", "lat": 60.038, "lon": 10.821, "hovedkategori": "snø", "underkategori": "langrenn" },
  { "navn": "Skullerudstua", "fylke": "Oslo", "omrade": "Østmarka", "lat": 59.865, "lon": 10.841, "hovedkategori": "snø", "underkategori": "langrenn" },
  { "navn": "Linderudkollen", "fylke": "Oslo", "omrade": "Lillomarka", "lat": 59.962, "lon": 10.838, "hovedkategori": "snø", "underkategori": "langrenn" },
  { "navn": "Solli (Asker)", "fylke": "Akershus", "omrade": "Vestmarka", "lat": 59.854, "lon": 10.374, "hovedkategori": "snø", "underkategori": "langrenn" },
  { "navn": "Lygna Skisenter", "fylke": "Innlandet", "omrade": "Hadeland", "lat": 60.463, "lon": 10.648, "hovedkategori": "snø", "underkategori": "langrenn" },
  { "navn": "Hemsedal Skisenter", "fylke": "Buskerud", "omrade": "Hallingdal", "lat": 60.863, "lon": 8.513, "hovedkategori": "snø", "underkategori": "alpint" },
  { "navn": "Geilo (Vestlia)", "fylke": "Buskerud", "omrade": "Hallingdal", "lat": 60.528, "lon": 8.209, "hovedkategori": "snø", "underkategori": "alpint" },
  { "navn": "Norefjell", "fylke": "Buskerud", "omrade": "Norefjell", "lat": 60.239, "lon": 9.596, "hovedkategori": "snø", "underkategori": "alpint" },
  { "navn": "Sjusjøen Skisenter", "fylke": "Innlandet", "omrade": "Gudbrandsdalen", "lat": 61.150, "lon": 10.700, "hovedkategori": "snø", "underkategori": "alpint" },
  { "navn": "Svinevika", "fylke": "Vestfold", "omrade": "Larvik", "lat": 59.023, "lon": 10.155, "hovedkategori": "vind", "underkategori": "hav" },
  { "navn": "Fredrikstad Skiarena", "fylke": "Østfold", "omrade": "Ytre Østfold", "lat": 59.231, "lon": 10.925, "hovedkategori": "snø", "underkategori": "langrenn" },
  { "navn": "Svanstul", "fylke": "Telemark", "omrade": "Grenland", "lat": 59.390, "lon": 9.388, "hovedkategori": "snø", "underkategori": "langrenn" },
  { "navn": "Gausta Skisenter", "fylke": "Telemark", "omrade": "Tinn", "lat": 59.878, "lon": 8.749, "hovedkategori": "snø", "underkategori": "alpint" },
  { "navn": "Gautefall", "fylke": "Telemark", "omrade": "Drangedal", "lat": 59.064, "lon": 8.724, "hovedkategori": "snø", "underkategori": "alpint" },
  { "navn": "Gålå Alpin og Aktiv", "fylke": "Innlandet", "omrade": "Gudbrandsdalen", "lat": 61.503, "lon": 9.789, "hovedkategori": "snø", "underkategori": "alpint" },
  { "navn": "Skeikampen", "fylke": "Innlandet", "omrade": "Gudbrandsdalen", "lat": 61.341, "lon": 10.081, "hovedkategori": "snø", "underkategori": "alpint" },
  { "navn": "Trysil", "fylke": "Innlandet", "omrade": "Østerdalen", "lat": 61.314, "lon": 12.261, "hovedkategori": "snø", "underkategori": "alpint" },
  { "navn": "Oslo Skisenter Grefsenkollen", "fylke": "Oslo", "omrade": "Grefsen", "lat": 59.958, "lon": 10.803, "hovedkategori": "snø", "underkategori": "alpint" },
  { "navn": "Skimore Oslo Tryvann/Wyller", "fylke": "Oslo", "omrade": "Tryvann", "lat": 59.988, "lon": 10.669, "hovedkategori": "snø", "underkategori": "alpint" },
  { "navn": "Sloreåsen slalåmbakke", "fylke": "Oslo", "omrade": "Ljan", "lat": 59.845, "lon": 10.795, "hovedkategori": "snø", "underkategori": "alpint" },
  { "navn": "Lindeberg", "fylke": "Oslo", "omrade": "Lindeberg", "lat": 59.932, "lon": 10.875, "hovedkategori": "snø", "underkategori": "alpint" },
  { "navn": "Høybråten/Stovner", "fylke": "Oslo", "omrade": "Stovner", "lat": 59.965, "lon": 10.925, "hovedkategori": "snø", "underkategori": "alpint" },
  { "navn": "Kolsås Skisenter", "fylke": "Akershus", "omrade": "Bærum", "lat": 59.927, "lon": 10.518, "hovedkategori": "snø", "underkategori": "alpint" },
  { "navn": "Kirkerudbakken", "fylke": "Akershus", "omrade": "Bærum", "lat": 59.904, "lon": 10.457, "hovedkategori": "snø", "underkategori": "alpint" },
  { "navn": "Lommedalen Skisenter", "fylke": "Akershus", "omrade": "Bærum", "lat": 59.961, "lon": 10.485, "hovedkategori": "snø", "underkategori": "alpint" },
  { "navn": "Vardåsen Skisenter", "fylke": "Akershus", "omrade": "Asker", "lat": 59.825, "lon": 10.405, "hovedkategori": "snø", "underkategori": "alpint" },
  { "navn": "Varingskollen Alpinsenter", "fylke": "Akershus", "omrade": "Nittedal", "lat": 60.106, "lon": 10.846, "hovedkategori": "snø", "underkategori": "alpint" },
  { "navn": "Ingierkollen Slalåmsenter", "fylke": "Akershus", "omrade": "Kolbotn", "lat": 59.814, "lon": 10.778, "hovedkategori": "snø", "underkategori": "alpint" },
  { "navn": "Brattbakken Nesodden", "fylke": "Akershus", "omrade": "Nesodden", "lat": 59.822, "lon": 10.635, "hovedkategori": "snø", "underkategori": "alpint" },
  { "navn": "SNØ (Lørenskog)", "fylke": "Akershus", "omrade": "Lørenskog", "lat": 59.938, "lon": 10.957, "hovedkategori": "snø", "underkategori": "alpint" },
  { "navn": "Kongsberg Skisenter", "fylke": "Buskerud", "omrade": "Kongsberg", "lat": 59.658, "lon": 9.613, "hovedkategori": "snø", "underkategori": "alpint" },
  { "navn": "Skimore Drammen", "fylke": "Buskerud", "omrade": "Drammen", "lat": 59.755, "lon": 10.155, "hovedkategori": "snø", "underkategori": "alpint" },
  { "navn": "Ål Skisenter", "fylke": "Buskerud", "omrade": "Hallingdal", "lat": 60.635, "lon": 8.525, "hovedkategori": "snø", "underkategori": "alpint" },
  { "navn": "Golsfjellet Alpinsenter", "fylke": "Buskerud", "omrade": "Gol", "lat": 60.785, "lon": 8.955, "hovedkategori": "snø", "underkategori": "alpint" },
  { "navn": "Gaustablikk", "fylke": "Telemark", "omrade": "Tinn", "lat": 59.885, "lon": 8.765, "hovedkategori": "snø", "underkategori": "alpint" },
  { "navn": "Vrådal Panorama", "fylke": "Telemark", "omrade": "Kviteseid", "lat": 59.325, "lon": 8.485, "hovedkategori": "snø", "underkategori": "alpint" },
  { "navn": "Middagsåsen Skisenter", "fylke": "Østfold", "omrade": "Våler", "lat": 59.485, "lon": 10.885, "hovedkategori": "snø", "underkategori": "alpint" },
  { "navn": "Hafjell", "fylke": "Innlandet", "omrade": "Lillehammer", "lat": 61.234, "lon": 10.451, "hovedkategori": "snø", "underkategori": "alpint" },
  { "navn": "Kvitfjell", "fylke": "Innlandet", "omrade": "Ringebu", "lat": 61.464, "lon": 10.126, "hovedkategori": "snø", "underkategori": "alpint" },
  { "navn": "Hovden Alpinsenter", "fylke": "Agder", "omrade": "Setesdal", "lat": 59.558, "lon": 7.356, "hovedkategori": "snø", "underkategori": "alpint" },
  { "id": "Ingierstrand", "navn": "Ingierstrand", "hovedkategori": "vind", "underkategori": "hav", "fylke": "Oslo", "omrade": "Bunnefjorden", "lat": 59.817, "lon": 10.752 },
  { "id": "bygdoy", "navn": "Bygdøy Sjøbad", "hovedkategori": "vind", "underkategori": "hav", "fylke": "Oslo", "omrade": "Oslofjorden", "lat": 59.905, "lon": 10.665 },
  { "id": "ellefstranda", "navn": "Ellefstranda", "hovedkategori": "vind", "underkategori": "hav", "fylke": "Akershus", "omrade": "Nærsnes", "lat": 59.757, "lon": 10.510 },
  { "id": "kjerringvik", "navn": "Kjerringvik", "hovedkategori": "vind", "underkategori": "hav", "fylke": "Vestfold", "omrade": "Larvik", "lat": 59.043, "lon": 10.226 },
  { "id": "tronvik", "navn": "Tronvikstranda", "hovedkategori": "vind", "underkategori": "hav", "fylke": "Østfold", "omrade": "Moss", "lat": 59.423, "lon": 10.603 },
  { "id": "larkollen", "navn": "Larkollen", "hovedkategori": "vind", "underkategori": "hav", "fylke": "Østfold", "omrade": "Rygge", "lat": 59.333, "lon": 10.664 },
  { "id": "svenner", "navn": "Svenner Fyr", "hovedkategori": "vind", "underkategori": "hav", "fylke": "Vestfold", "omrade": "Stavern", "lat": 58.968, "lon": 10.148 },
  { "id": "faerder", "navn": "Færder Fyr", "hovedkategori": "vind", "underkategori": "hav", "fylke": "Vestfold", "omrade": "Ytre Oslofjord", "lat": 59.027, "lon": 10.524 },
  { "id": "molen", "navn": "Mølen", "hovedkategori": "vind", "underkategori": "hav", "fylke": "Vestfold", "omrade": "Larvik", "lat": 58.972, "lon": 9.804 },
  { "id": "lindesnes", "navn": "Lindesnes Fyr", "hovedkategori": "vind", "underkategori": "hav", "fylke": "Agder", "omrade": "Sørlandet", "lat": 57.982, "lon": 7.047 },
  { "id": "andenes", "navn": "Andenes", "hovedkategori": "vind", "underkategori": "hav", "fylke": "Nordland", "omrade": "Vesterålen", "lat": 69.324, "lon": 16.118 },
  { "id": "nordkapp", "navn": "Nordkapp", "hovedkategori": "vind", "underkategori": "hav", "fylke": "Finnmark", "omrade": "Magerøya", "lat": 71.169, "lon": 25.783 },
  { "id": "mjosa_hamar", "navn": "Mjøsa (Hamar)", "hovedkategori": "vind", "underkategori": "innsjø", "fylke": "Innlandet", "omrade": "Hamar", "lat": 60.791, "lon": 11.077 },
  { "id": "skar_oyungen", "navn": "Skar: Øyungen", "hovedkategori": "tur", "underkategori": "stier", "fylke": "Oslo", "omrade": "Maridalen", "lat": 60.005, "lon": 10.778 },
  { "id": "skar_mellomkollen", "navn": "Skar: Mellomkollen", "hovedkategori": "tur", "underkategori": "topper", "fylke": "Oslo", "omrade": "Maridalsalpene", "lat": 60.015, "lon": 10.770 },
  { "id": "aker_brygge", "navn": "Aker Brygge", "hovedkategori": "tur", "underkategori": "byen", "fylke": "Oslo", "omrade": "Sentrum", "lat": 59.911, "lon": 10.728 },
  { "id": "maridalen_runde", "navn": "Maridalen Rundt", "hovedkategori": "sykkel", "underkategori": "landevei", "fylke": "Oslo", "omrade": "Maridalen", "lat": 59.992, "lon": 10.768 },
  { "id": "tryvann_sti", "navn": "Tryvann: Pioneerstien", "hovedkategori": "sykkel", "underkategori": "terreng", "fylke": "Oslo", "omrade": "Nordmarka", "lat": 59.988, "lon": 10.669 },{ "id": "maridalsvannet", "navn": "Maridalsvannet", "hovedkategori": "vind", "underkategori": "innsjø", "fylke": "Oslo", "omrade": "Maridalen", "lat": 59.988, "lon": 10.776 },
  { "id": "oyeren", "navn": "Øyeren", "hovedkategori": "vind", "underkategori": "innsjø", "fylke": "Akershus", "omrade": "Lillestrøm", "lat": 59.885, "lon": 11.121 },
  { "id": "hurdalssjoen", "navn": "Hurdalssjøen", "hovedkategori": "vind", "underkategori": "innsjø", "fylke": "Akershus", "omrade": "Hurdal", "lat": 60.381, "lon": 11.066 },
  { "id": "storsjoen", "navn": "Storsjøen", "hovedkategori": "vind", "underkategori": "innsjø", "fylke": "Innlandet", "omrade": "Odalen", "lat": 60.347, "lon": 11.666 },
  { "id": "tyrifjorden", "navn": "Tyrifjorden", "hovedkategori": "vind", "underkategori": "innsjø", "fylke": "Buskerud", "omrade": "Hole", "lat": 60.033, "lon": 10.200 },
  { "id": "eikeren", "navn": "Eikeren", "hovedkategori": "vind", "underkategori": "innsjø", "fylke": "Buskerud", "omrade": "Øvre Eiker", "lat": 59.610, "lon": 10.050 },
  { "id": "tinnsja", "navn": "Tinnsjå", "hovedkategori": "vind", "underkategori": "innsjø", "fylke": "Telemark", "omrade": "Tinn", "lat": 59.923, "lon": 8.783 },
  { "id": "isdammen", "navn": "Isdammen Årvoll", "hovedkategori": "sykkel", "underkategori": "terreng", "fylke": "Oslo", "omrade": "Bjerke", "lat": 59.952, "lon": 10.825 },
  { "id": "alunsjoen", "navn": "Alunsjøen Grorud", "hovedkategori": "sykkel", "underkategori": "terreng", "fylke": "Oslo", "omrade": "Grorud", "lat": 59.965, "lon": 10.865 },
  { "id": "skullerudstua", "navn": "Skullerudstua", "hovedkategori": "sykkel", "underkategori": "terreng", "fylke": "Oslo", "omrade": "Østmarka", "lat": 59.865, "lon": 10.844 },
  { "id": "oset_kjellsas", "navn": "Oset Kjellsås", "hovedkategori": "sykkel", "underkategori": "terreng", "fylke": "Oslo", "omrade": "Nordmarka", "lat": 59.972, "lon": 10.790 },
  { "id": "kleivstua", "navn": "Kleivstua Hotell", "hovedkategori": "sykkel", "underkategori": "terreng", "fylke": "Buskerud", "omrade": "Krokskogen", "lat": 60.038, "lon": 10.316 },
  { "id": "bokeskogen", "navn": "Bøkeskogen Larvik", "hovedkategori": "sykkel", "underkategori": "terreng", "fylke": "Vestfold", "omrade": "Larvik", "lat": 59.057, "lon": 10.024 },
  { "id": "svinevika_terreng", "navn": "Svinevika", "hovedkategori": "sykkel", "underkategori": "terreng", "fylke": "Vestfold", "omrade": "Larvik", "lat": 59.014, "lon": 10.141 },
  { "id": "mangen_kapell", "navn": "Mangen Kapell", "hovedkategori": "sykkel", "underkategori": "terreng", "fylke": "Akershus", "omrade": "Aurskog-Høland", "lat": 60.007, "lon": 11.666 },
  { "id": "hogsetgrenda", "navn": "Hogsetgrenda", "hovedkategori": "sykkel", "underkategori": "terreng", "fylke": "Akershus", "omrade": "Fet", "lat": 59.932, "lon": 11.218 },
  { "id": "taerudhallen", "navn": "Tærudhallen", "hovedkategori": "sykkel", "underkategori": "terreng", "fylke": "Akershus", "omrade": "Skedsmokorset", "lat": 60.005, "lon": 11.025 },
  { "id": "nittedal_kirke_terreng", "navn": "Nittedal Kirke", "hovedkategori": "sykkel", "underkategori": "terreng", "fylke": "Akershus", "omrade": "Nittedal", "lat": 60.054, "lon": 10.865 },
  { "id": "arvoll_landevei", "navn": "Årvoll", "hovedkategori": "sykkel", "underkategori": "landevei", "fylke": "Oslo", "omrade": "Bjerke", "lat": 59.949, "lon": 10.817 },
  { "id": "maridalen_landevei", "navn": "Maridalen", "hovedkategori": "sykkel", "underkategori": "landevei", "fylke": "Oslo", "omrade": "Nordmarka", "lat": 59.992, "lon": 10.768 },
  { "id": "nittedal_landevei", "navn": "Nittedal", "hovedkategori": "sykkel", "underkategori": "landevei", "fylke": "Akershus", "omrade": "Hadelandsveien", "lat": 60.025, "lon": 10.890 },
  { "id": "oslo_sentrum", "navn": "Oslo", "hovedkategori": "sykkel", "underkategori": "landevei", "fylke": "Oslo", "omrade": "Byen", "lat": 59.913, "lon": 10.752 },
  { "id": "larvik_landevei", "navn": "Larvik", "hovedkategori": "sykkel", "underkategori": "landevei", "fylke": "Vestfold", "omrade": "Brunlanes", "lat": 59.053, "lon": 10.028 },
  { "id": "sandefjord_landevei", "navn": "Sandefjord", "hovedkategori": "sykkel", "underkategori": "landevei", "fylke": "Vestfold", "omrade": "Vestfold", "lat": 59.131, "lon": 10.222 },
  { "id": "blaker_landevei", "navn": "Blaker", "hovedkategori": "sykkel", "underkategori": "landevei", "fylke": "Akershus", "omrade": "Indre Akershus", "lat": 59.991, "lon": 11.300 },
  { "id": "skedsmo_landevei", "navn": "Skedsmo", "hovedkategori": "sykkel", "underkategori": "landevei", "fylke": "Akershus", "omrade": "Skedsmokorset", "lat": 60.005, "lon": 11.025 },
  { "id": "harstad_landevei", "navn": "Harstad", "hovedkategori": "sykkel", "underkategori": "landevei", "fylke": "Troms", "omrade": "Nord-Norge", "lat": 68.798, "lon": 16.541 },
  { "id": "kvafjord_landevei", "navn": "Kvæfjord", "hovedkategori": "sykkel", "underkategori": "landevei", "fylke": "Troms", "omrade": "Kvæfjord", "lat": 68.772, "lon": 16.175 },
  { "id": "andenes_landevei", "navn": "Andenes", "hovedkategori": "sykkel", "underkategori": "landevei", "fylke": "Nordland", "omrade": "Vesterålen", "lat": 69.324, "lon": 16.118 },
  { "id": "alta_landevei", "navn": "Alta", "hovedkategori": "sykkel", "underkategori": "landevei", "fylke": "Finnmark", "omrade": "Altafjorden", "lat": 69.968, "lon": 23.271 },
  { "id": "bergen_landevei", "navn": "Bergen", "hovedkategori": "sykkel", "underkategori": "landevei", "fylke": "Vestland", "omrade": "Vestlandet", "lat": 60.391, "lon": 5.322 },
  { "id": "stavanger_landevei", "navn": "Stavanger", "hovedkategori": "sykkel", "underkategori": "landevei", "fylke": "Rogaland", "omrade": "Sør-Vest", "lat": 58.970, "lon": 5.733 },
  { "id": "halden_landevei", "navn": "Halden", "hovedkategori": "sykkel", "underkategori": "landevei", "fylke": "Østfold", "omrade": "Grensen", "lat": 59.124, "lon": 11.387 }]