[
  { "navn": "Mylla/Myllsdammen", "fylke": "Akershus", "omrade": "Nordmarka Nord", "lat": 60.252, "lon": 10.605, "hovedkategori": "snø", "underkategori": "langrenn" },
  { "navn": "Svartbekken", "fylke": "Akershus", "omrade": "Nordmarka Nord", "lat": 60.233, "lon": 10.655, "hovedkategori": "snø", "underkategori": "langrenn" },
  { "navn": "Svea", "fylke": "Akershus", "omrade": "Nordmarka Nord", "lat": 60.251, "lon": 10.552, "hovedkategori": "snø", "underkategori": "langrenn" },
  { "navn": "Brovoll", "fylke": "Akershus", "omrade": "Romeriksåsen", "lat": 60.315, "lon": 10.618, "hovedkategori": "snø", "underkategori": "langrenn" },
  { "navn": "Frognerseteren", "fylke": "Oslo", "omrade": "Nordmarka Syd", "lat": 59.978, "lon": 10.677, "hovedkategori": "snø", "underkategori": "langrenn" },
  { "navn": "Sognsvann", "fylke": "Oslo", "omrade": "Nordmarka Syd", "lat": 59.967, "lon": 10.733, "hovedkategori": "snø", "underkategori": "langrenn" },
  { "navn": "Movatn", "fylke": "Oslo", "omrade": "Nordmarka Nord", "lat": 60.038, "lon": 10.821, "hovedkategori": "snø", "underkategori": "langrenn" },
  { "navn": "Skullerudstua", "fylke": "Oslo", "omrade": "Østmarka", "lat": 59.865, "lon": 10.841, "hovedkategori": "snø", "underkategori": "langrenn" },
  { "navn": "Linderudkollen", "fylke": "Oslo", "omrade": "Lillomarka", "lat": 59.962, "lon": 10.838, "hovedkategori": "snø", "underkategori": "langrenn" },
  { "navn": "Solli (Asker)", "fylke": "Akershus", "omrade": "Vestmarka", "lat": 59.854, "lon": 10.374, "hovedkategori": "snø", "underkategori": "langrenn" },
  { "navn": "Lygna Skisenter", "fylke": "Innlandet", "omrade": "Hadeland", "lat": 60.463, "lon": 10.648, "hovedkategori": "snø", "underkategori": "langrenn" },
  { "navn": "Hemsedal Skisenter", "fylke": "Buskerud", "omrade": "Hallingdal", "lat": 60.863, "lon": 8.513, "hovedkategori": "snø", "underkategori": "alpint" },
  { "navn": "Geilo (Vestlia)", "fylke": "Buskerud", "omrade": "Hallingdal", "lat": 60.528, "lon": 8.209, "hovedkategori": "snø", "underkategori": "alpint" },
  { "navn": "Norefjell", "fylke": "Buskerud", "omrade": "Norefjell", "lat": 60.239, "lon": 9.596, "hovedkategori": "snø", "underkategori": "alpint" },
  { "navn": "Sjusjøen Skisenter", "fylke": "Innlandet", "omrade": "Gudbrandsdalen", "lat": 61.150, "lon": 10.700, "hovedkategori": "snø", "underkategori": "alpint" },
  { "navn": "Svinevika", "fylke": "Vestfold", "omrade": "Larvik", "lat": 59.023, "lon": 10.155, "hovedkategori": "vind", "underkategori": "hav" },
  { "navn": "Fredrikstad Skiarena", "fylke": "Østfold", "omrade": "Ytre Østfold", "lat": 59.231, "lon": 10.925, "hovedkategori": "snø", "underkategori": "langrenn" },
  { "navn": "Svanstul", "fylke": "Telemark", "omrade": "Grenland", "lat": 59.390, "lon": 9.388, "hovedkategori": "snø", "underkategori": "langrenn" },
  { "navn": "Gausta Skisenter", "fylke": "Telemark", "omrade": "Tinn", "lat": 59.878, "lon": 8.749, "hovedkategori": "snø", "underkategori": "alpint" },
  { "navn": "Gautefall", "fylke": "Telemark", "omrade": "Drangedal", "lat": 59.064, "lon": 8.724, "hovedkategori": "snø", "underkategori": "alpint" },
  { "navn": "Gålå Alpin og Aktiv", "fylke": "Innlandet", "omrade": "Gudbrandsdalen", "lat": 61.503, "lon": 9.789, "hovedkategori": "snø", "underkategori": "alpint" },
  { "navn": "Skeikampen", "fylke": "Innlandet", "omrade": "Gudbrandsdalen", "lat": 61.341, "lon": 10.081, "hovedkategori": "snø", "underkategori": "alpint" },
  { "navn": "Trysil", "fylke": "Innlandet", "omrade": "Østerdalen", "lat": 61.314, "lon": 12.261, "hovedkategori": "snø", "underkategori": "alpint" },
  { "navn": "Oslo Skisenter Grefsenkollen", "fylke": "Oslo", "omrade": "Grefsen", "lat": 59.958, "lon": 10.803, "hovedkategori": "snø", "underkategori": "alpint" },
  { "navn": "Skimore Oslo Tryvann/Wyller", "fylke": "Oslo", "omrade": "Tryvann", "lat": 59.988, "lon": 10.669, "hovedkategori": "snø", "underkategori": "alpint" },
  { "navn": "Sloreåsen slalåmbakke", "fylke": "Oslo", "omrade": "Ljan", "lat": 59.845, "lon": 10.795, "hovedkategori": "snø", "underkategori": "alpint" },
  { "navn": "Lindeberg", "fylke": "Oslo", "omrade": "Lindeberg", "lat": 59.932, "lon": 10.875, "hovedkategori": "snø", "underkategori": "alpint" },
  { "navn": "Høybråten/Stovner", "fylke": "Oslo", "omrade": "Stovner", "lat": 59.965, "lon": 10.925, "hovedkategori": "snø", "underkategori": "alpint" },
  { "navn": "Kolsås Skisenter", "fylke": "Akershus", "omrade": "Bærum", "lat": 59.927, "lon": 10.518, "hovedkategori": "snø", "underkategori": "alpint" },
  { "navn": "Kirkerudbakken", "fylke": "Akershus", "omrade": "Bærum", "lat": 59.904, "lon": 10.457, "hovedkategori": "snø", "underkategori": "alpint" },
  { "navn": "Lommedalen Skisenter", "fylke": "Akershus", "omrade": "Bærum", "lat": 59.961, "lon": 10.485, "hovedkategori": "snø", "underkategori": "alpint" },
  { "navn": "Vardåsen Skisenter", "fylke": "Akershus", "omrade": "Asker", "lat": 59.825, "lon": 10.405, "hovedkategori": "snø", "underkategori": "alpint" },
  { "navn": "Varingskollen Alpinsenter", "fylke": "Akershus", "omrade": "Nittedal", "lat": 60.106, "lon": 10.846, "hovedkategori": "snø", "underkategori": "alpint" },
  { "navn": "Ingierkollen Slalåmsenter", "fylke": "Akershus", "omrade": "Kolbotn", "lat": 59.814, "lon": 10.778, "hovedkategori": "snø", "underkategori": "alpint" },
  { "navn": "Brattbakken Nesodden", "fylke": "Akershus", "omrade": "Nesodden", "lat": 59.822, "lon": 10.635, "hovedkategori": "snø", "underkategori": "alpint" },
  { "navn": "SNØ (Lørenskog)", "fylke": "Akershus", "omrade": "Lørenskog", "lat": 59.938, "lon": 10.957, "hovedkategori": "snø", "underkategori": "alpint" },
  { "navn": "Kongsberg Skisenter", "fylke": "Buskerud", "omrade": "Kongsberg", "lat": 59.658, "lon": 9.613, "hovedkategori": "snø", "underkategori": "alpint" },
  { "navn": "Skimore Drammen", "fylke": "Buskerud", "omrade": "Drammen", "lat": 59.755, "lon": 10.155, "hovedkategori": "snø", "underkategori": "alpint" },
  { "navn": "Ål Skisenter", "fylke": "Buskerud", "omrade": "Hallingdal", "lat": 60.635, "lon": 8.525, "hovedkategori": "snø", "underkategori": "alpint" },
  { "navn": "Golsfjellet Alpinsenter", "fylke": "Buskerud", "omrade": "Gol", "lat": 60.785, "lon": 8.955, "hovedkategori": "snø", "underkategori": "alpint" },
  { "navn": "Gaustablikk", "fylke": "Telemark", "omrade": "Tinn", "lat": 59.885, "lon": 8.765, "hovedkategori": "snø", "underkategori": "alpint" },
  { "navn": "Vrådal Panorama", "fylke": "Telemark", "omrade": "Kviteseid", "lat": 59.325, "lon": 8.485, "hovedkategori": "snø", "underkategori": "alpint" },
  { "navn": "Middagsåsen Skisenter", "fylke": "Østfold", "omrade": "Våler", "lat": 59.485, "lon": 10.885, "hovedkategori": "snø", "underkategori": "alpint" },
  { "navn": "Hafjell", "fylke": "Innlandet", "omrade": "Lillehammer", "lat": 61.234, "lon": 10.451, "hovedkategori": "snø", "underkategori": "alpint" },
  { "navn": "Kvitfjell", "fylke": "Innlandet", "omrade": "Ringebu", "lat": 61.464, "lon": 10.126, "hovedkategori": "snø", "underkategori": "alpint" },
  { "navn": "Hovden Alpinsenter", "fylke": "Agder", "omrade": "Setesdal", "lat": 59.558, "lon": 7.356, "hovedkategori": "snø", "underkategori": "alpint" }
]